,COUNTRY,country_ID,WHO_REGION,DATA_SOURCE,TOTAL_VACCINATIONS,Cumulative_deaths,country_ID_2,country_name,GDPcap_2023,GDPcap_2022,GDPcap_2021,GDPcap_2020,GDPcap_2019,pop_2023,pop_2022,pop_2021,pop_2020,pop_2019,id,iso2Code,name,region,capitalCity,longitude,latitude
0,Aruba,ABW,AMRO,REPORTING,217124.0,292.0,AW,Aruba,,33300.8388187011,29127.7593841909,24008.1278217477,31902.8098183195,106277.0,106445.0,106537.0,106585.0,106442.0,ABW,AW,Aruba,Latin America & Caribbean ,Oranjestad,-70.0167,12.5167
1,Afghanistan,AFG,EMRO,REPORTING,22964750.0,7998.0,AF,Afghanistan,,352.603733092107,355.777826392648,512.055098005672,497.741431256813,42239854.0,41128771.0,40099462.0,38972230.0,37769499.0,AFG,AF,Afghanistan,South Asia,Kabul,69.1761,34.5228
2,Angola,AGO,AFRO,REPORTING,27819132.0,1937.0,AO,Angola,2309.52162029791,2933.48464381415,1927.47407827687,1450.90511139418,2191.34776433537,36684202.0,35588987.0,34503774.0,33428486.0,32353588.0,AGO,AO,Angola,Sub-Saharan Africa ,Luanda,13.242,-8.81155
3,Anguilla,AIA,AMRO,REPORTING,24864.0,12.0,,,,,,,,,,,,,,,,,,,
4,Albania,ALB,EURO,REPORTING,3088966.0,3605.0,AL,Albania,8367.77573143421,6810.11404104233,6377.20309553753,5343.0377039956,5396.2142432843,2745972.0,2777689.0,2811666.0,2837849.0,2854191.0,ALB,AL,Albania,Europe & Central Asia,Tirane,19.8172,41.3317
5,Andorra,AND,EURO,REPORTING,157072.0,159.0,AD,Andorra,46544.7207199483,42350.6970690874,42066.4905178822,37207.2219994994,41328.6004978373,80088.0,79824.0,79034.0,77700.0,76343.0,AND,AD,Andorra,Europe & Central Asia,Andorra la Vella,1.5218,42.5075
6,Argentina,ARG,AMRO,REPORTING,116686617.0,130678.0,AR,Argentina,13730.5147090247,13650.6046294524,10650.8604604345,8500.83793850534,9963.67416171662,46654581.0,46234830.0,45808747.0,45376763.0,44938712.0,ARG,AR,Argentina,Latin America & Caribbean ,Buenos Aires,-58.4173,-34.6118
7,Armenia,ARM,EURO,REPORTING,2256919.0,8777.0,AM,Armenia,8715.76533622178,7018.05150434798,4972.78320361917,4505.86774175695,4828.50488626598,2777970.0,2780469.0,2790974.0,2805608.0,2820602.0,ARM,AM,Armenia,Europe & Central Asia,Yerevan,44.509,40.1596
8,Antigua and Barbuda,ATG,AMRO,REPORTING,136512.0,146.0,AG,Antigua and Barbuda,21560.2153299665,19919.7266867883,17178.5437160522,15224.8585890561,18730.0047966374,94298.0,93763.0,93219.0,92664.0,92117.0,ATG,AG,Antigua and Barbuda,Latin America & Caribbean ,Saint John's,-61.8456,17.1175
9,Australia,AUS,WPRO,REPORTING,69686752.0,25236.0,AU,Australia,64711.7656030565,65077.676668821,60697.2454358579,51868.2475567823,55049.571919719,26638544.0,26014399.0,25685412.0,25649248.0,25334826.0,AUS,AU,Australia,East Asia & Pacific,Canberra,149.129,-35.282
10,Austria,AUT,EURO,REPORTING,20403676.0,22534.0,AT,Austria,56505.9682796867,52084.6811953372,53517.8904509612,48789.4978498872,50067.5857265892,9132383.0,9041851.0,8955797.0,8916864.0,8879920.0,AUT,AT,Austria,Europe & Central Asia,Vienna,16.3798,48.2201
11,Azerbaijan,AZE,EURO,REPORTING,13829360.0,10353.0,AZ,Azerbaijan,7155.08360355897,7770.594223351,5408.04535175023,4229.91064904503,4805.75371765917,10112555.0,10141756.0,10137750.0,10093121.0,10024283.0,AZE,AZ,Azerbaijan,Europe & Central Asia,Baku,49.8932,40.3834
12,Burundi,BDI,AFRO,REPORTING,42252.0,15.0,BI,Burundi,199.580760181492,259.025031363088,221.157803429854,216.827417481114,216.972970900616,13238559.0,12889576.0,12551213.0,12220227.0,11874838.0,BDI,BI,Burundi,Sub-Saharan Africa ,Bujumbura,29.3639,-3.3784
13,Belgium,BEL,EURO,REPORTING,29117755.0,34339.0,BE,Belgium,53475.2934952935,49942.0906424887,51863.8311565054,45587.968308319,46641.7214017087,11822592.0,11685814.0,11586195.0,11538604.0,11488980.0,BEL,BE,Belgium,Europe & Central Asia,Brussels,4.36761,50.8371
14,Benin,BEN,AFRO,REPORTING,4232541.0,163.0,BJ,Benin,1434.66283439144,1304.99479694323,1360.91147388169,1240.73315461172,1170.88599492622,13712828.0,13352864.0,12996895.0,12643123.0,12290444.0,BEN,BJ,Benin,Sub-Saharan Africa ,Porto-Novo,2.6323,6.4779
15,Burkina Faso,BFA,AFRO,REPORTING,7893609.0,400.0,BF,Burkina Faso,874.121280381345,830.043965850311,888.803610895832,823.552410880968,765.229560401644,23251485.0,22673762.0,22100683.0,21522626.0,20951639.0,BFA,BF,Burkina Faso,Sub-Saharan Africa ,Ouagadougou,-1.53395,12.3605
16,Bulgaria,BGR,EURO,REPORTING,4723016.0,38721.0,BG,Bulgaria,15797.5955773596,13974.4492487792,12219.3418706779,10148.3423954435,9874.33632625168,6430370.0,6465097.0,6877743.0,6934015.0,6975761.0,BGR,BG,Bulgaria,Europe & Central Asia,Sofia,23.3238,42.7105
17,Bahamas,BHS,AMRO,REPORTING,366359.0,849.0,BS,"Bahamas, The",34749.6382896736,32041.2503902591,27871.3723259771,24499.1647620617,32173.9581814182,412623.0,409984.0,407906.0,406471.0,404557.0,BHS,BS,"Bahamas, The",Latin America & Caribbean ,Nassau,-77.339,25.0661
18,Bosnia and Herzegovina,BIH,EURO,REPORTING,1190949.0,16399.0,BA,Bosnia and Herzegovina,8426.09111019155,7587.58817346075,7237.27446250665,6095.10423658487,6094.72482322311,3210847.0,3233526.0,3270943.0,3318407.0,3360711.0,BIH,BA,Bosnia and Herzegovina,Europe & Central Asia,Sarajevo,18.4214,43.8607
19,Belarus,BLR,EURO,REPORTING,22765402.0,7118.0,BY,Belarus,7829.05313660622,7994.64806074889,7489.71894713888,6542.8645398436,6837.76832136779,9178298.0,9228071.0,9302585.0,9379952.0,9419758.0,BLR,BY,Belarus,Europe & Central Asia,Minsk,27.5766,53.9678
20,Belize,BLZ,AMRO,REPORTING,511106.0,688.0,BZ,Belize,7987.58595509037,6984.21695968163,6060.96822340845,5185.1580697602,6134.21523305713,410825.0,405272.0,400031.0,394921.0,389095.0,BLZ,BZ,Belize,Latin America & Caribbean ,Belmopan,-88.7713,17.2534
21,Bermuda,BMU,AMRO,REPORTING,136759.0,165.0,BM,Bermuda,,123091.123516,114274.622043786,107791.886435134,116153.166121638,63489.0,63595.0,63764.0,63893.0,63911.0,BMU,BM,Bermuda,North America,Hamilton,-64.706,32.3293
22,Bolivia (Plurinational State of),BOL,AMRO,REPORTING,16104540.0,22387.0,BO,Bolivia,3700.97833772869,3600.12163502163,3345.02300209796,3068.81255516456,3472.38083136442,12388571.0,12224110.0,12079472.0,11936162.0,11777315.0,BOL,BO,Bolivia,Latin America & Caribbean ,La Paz,-66.1936,-13.9908
23,Brazil,BRA,AMRO,REPORTING,516237106.0,702116.0,BR,Brazil,10043.6239221567,9065.49733395404,7794.88097933152,6923.6999117682,8845.32414932264,216422446.0,215313498.0,214326223.0,213196304.0,211782878.0,BRA,BR,Brazil,Latin America & Caribbean ,Brasilia,-47.9292,-15.7801
24,Barbados,BRB,AMRO,REPORTING,384049.0,593.0,BB,Barbados,22672.6154350731,20738.4511868198,17586.3300142247,17028.4137830299,19156.0398672282,281995.0,281635.0,281200.0,280693.0,280180.0,BRB,BB,Barbados,Latin America & Caribbean ,Bridgetown,-59.6105,13.0935
25,Botswana,BWA,AFRO,REPORTING,3171667.0,2801.0,BW,Botswana,7249.79932596262,7726.11099664689,7244.15854755666,5875.07043504191,6691.16084579207,2675352.0,2630296.0,2588423.0,2546402.0,2499702.0,BWA,BW,Botswana,Sub-Saharan Africa ,Gaborone,25.9201,-24.6544
26,Central African Republic,CAF,AFRO,REPORTING,3342248.0,113.0,CF,Central African Republic,445.028195988605,427.058096191269,461.137510956047,435.469247800022,426.408753120209,5742315.0,5579144.0,5457154.0,5343020.0,5209324.0,CAF,CF,Central African Republic,Sub-Saharan Africa ,Bangui,21.6407,5.63056
27,Canada,CAN,AMRO,REPORTING,99034734.0,55282.0,CA,Canada,53371.6974319701,55509.393176404,52496.8441693242,43537.839298904,46352.8693445211,40097761.0,38939056.0,38239864.0,38028638.0,37618495.0,CAN,CA,Canada,North America,Ottawa,-75.6919,45.4215
28,Switzerland,CHE,EURO,REPORTING,16755985.0,14170.0,CH,Switzerland,99994.9380204786,93259.9057183024,93446.4344518943,85897.7843338323,84121.9310304414,8849852.0,8775760.0,8704546.0,8638167.0,8575280.0,CHE,CH,Switzerland,Europe & Central Asia,Bern,7.44821,46.948
29,Chile,CHL,AMRO,REPORTING,66864900.0,64497.0,CL,Chile,17093.2419713921,15411.1739539112,16185.9147709548,13162.5913519707,14616.2072513761,19629590.0,19603733.0,19493184.0,19300315.0,19039485.0,CHL,CL,Chile,Latin America & Caribbean ,Santiago,-70.6475,-33.475
30,Cameroon,CMR,AFRO,REPORTING,4880572.0,1974.0,CM,Cameroon,1673.64888857222,1563.48894034459,1654.25703730592,1539.13054519245,1538.5630625108,28647293.0,27914536.0,27198628.0,26491087.0,25782341.0,CMR,CM,Cameroon,Sub-Saharan Africa ,Yaounde,11.5174,3.8721
31,Democratic Republic of the Congo,COD,AFRO,REPORTING,18808671.0,1474.0,CD,"Congo, Dem. Rep.",649.143987939358,664.593543336696,576.974729394136,524.666686211495,575.882781366465,102262808.0,99010212.0,95894118.0,92853164.0,89906890.0,COD,CD,"Congo, Dem. Rep.",Sub-Saharan Africa ,Kinshasa,15.3222,-4.325
32,Congo,COG,AFRO,REPORTING,833210.0,389.0,CG,"Congo, Rep.",2508.82339515164,2649.23063369467,2540.47002419731,2011.28344044263,2508.94044443477,6106869.0,5970424.0,5835806.0,5702174.0,5570733.0,COG,CG,"Congo, Rep.",Sub-Saharan Africa ,Brazzaville,15.2662,-4.2767
33,Colombia,COL,AMRO,REPORTING,90931192.0,142727.0,CO,Colombia,6979.72513470377,6657.08669677355,6182.9559438651,5308.16470717512,6436.50921493811,52085168.0,51874024.0,51516562.0,50930662.0,50187406.0,COL,CO,Colombia,Latin America & Caribbean ,Bogota,-74.082,4.60987
34,Comoros,COM,AFRO,REPORTING,835021.0,161.0,KM,Comoros,1587.16189555687,1484.89246532042,1577.47084122292,1519.58678065177,1510.7973237214,852075.0,836774.0,821625.0,806166.0,790986.0,COM,KM,Comoros,Sub-Saharan Africa ,Moroni,43.2418,-11.6986
35,Cabo Verde,CPV,AFRO,REPORTING,859940.0,417.0,CV,Cabo Verde,4321.57986427786,3883.91115917161,3489.97339736459,3126.39985872259,3903.05031683625,598682.0,593149.0,587925.0,582640.0,577030.0,CPV,CV,Cabo Verde,Sub-Saharan Africa ,Praia,-23.5087,14.9218
36,Costa Rica,CRI,AMRO,REPORTING,13576935.0,9374.0,CR,Costa Rica,16595.3703837185,13365.3563992546,12604.0488374654,12179.2566735195,12669.3411549351,5212173.0,5180829.0,5153957.0,5123105.0,5084532.0,CRI,CR,Costa Rica,Latin America & Caribbean ,San Jose,-84.0089,9.63701
37,Cuba,CUB,AMRO,REPORTING,45857667.0,8530.0,CU,Cuba,,,,9499.57250428248,9139.38051005519,11194449.0,11212191.0,11256372.0,11300698.0,11316697.0,CUB,CU,Cuba,Latin America & Caribbean ,Havana,-82.3667,23.1333
38,Cayman Islands,CYM,AMRO,REPORTING,152148.0,37.0,KY,Cayman Islands,,96073.7635946963,88940.1565924825,84018.3325792543,89846.3210991824,69310.0,68706.0,68136.0,67311.0,66134.0,CYM,KY,Cayman Islands,Latin America & Caribbean ,George Town,-81.3857,19.3022
39,Cyprus,CYP,EURO,REPORTING,1891597.0,1482.0,CY,Cyprus,34701.44140625,32048.248046875,32745.83984375,28281.412109375,29419.9921875,1260138.0,1251488.0,1244188.0,1237537.0,1228836.0,CYP,CY,Cyprus,Europe & Central Asia,Nicosia,33.3736,35.1676
40,Czechia,CZE,EURO,REPORTING,18615329.0,43554.0,CZ,Czechia,30427.4234688601,27226.6156386023,26822.5141862111,22992.8793833348,23664.8478631108,10873689.0,10672118.0,10505772.0,10697858.0,10671870.0,CZE,CZ,Czechia,Europe & Central Asia,Prague,14.4205,50.0878
41,Germany,DEU,EURO,REPORTING,193241457.0,174979.0,DE,Germany,52745.7557064131,48717.9911402128,51426.7503654421,46749.4762280016,46805.1384334439,84482267.0,83797985.0,83196078.0,83160871.0,83092962.0,DEU,DE,Germany,Europe & Central Asia,Berlin,13.4115,52.5235
42,Djibouti,DJI,EMRO,REPORTING,723789.0,189.0,DJ,Djibouti,3606.4168960124,3278.138695825,3062.55148207643,2921.73870623293,2876.04366371536,1136455.0,1120849.0,1105557.0,1090156.0,1073994.0,DJI,DJ,Djibouti,Middle East & North Africa,Djibouti,43.1425,11.5806
43,Dominica,DMA,AMRO,REPORTING,67647.0,74.0,DM,Dominica,8953.89639365543,8347.32336031537,7668.15813216962,7003.46989117043,8561.58701121461,73040.0,72737.0,72412.0,71995.0,71428.0,DMA,DM,Dominica,Latin America & Caribbean ,Roseau,-61.39,15.2976
44,Denmark,DNK,EURO,REPORTING,14928430.0,9808.0,DK,Denmark,67967.3818685562,67790.0539923276,69268.6517983134,60836.5924121638,59592.9806886454,5946952.0,5903037.0,5856733.0,5831404.0,5814422.0,DNK,DK,Denmark,Europe & Central Asia,Copenhagen,12.5681,55.6763
45,Dominican Republic,DOM,AMRO,REPORTING,16431089.0,4384.0,DO,Dominican Republic,10716.0133558903,10111.2457110261,8476.74963892506,7167.91497432809,8173.34469885261,11332972.0,11228821.0,11117873.0,10999664.0,10881882.0,DOM,DO,Dominican Republic,Latin America & Caribbean ,Santo Domingo,-69.8908,18.479
46,Algeria,DZA,AFRO,REPORTING,15267442.0,6881.0,DZ,Algeria,5260.20624980797,5023.25293164928,4216.2512851303,3794.40952448639,4530.10174483631,45606480.0,44903225.0,44177969.0,43451666.0,42705368.0,DZA,DZ,Algeria,Middle East & North Africa,Algiers,3.05097,36.7397
47,Ecuador,ECU,AMRO,REPORTING,39585085.0,36053.0,EC,Ecuador,6533.35150400616,6476.64457530137,6036.4472741675,5450.43376119582,6203.72705079758,18190484.0,18001000.0,17797737.0,17588595.0,17343740.0,ECU,EC,Ecuador,Latin America & Caribbean ,Quito,-78.5243,-0.229498
48,Egypt,EGY,EMRO,REPORTING,102191677.0,24830.0,EG,"Egypt, Arab Rep.",3512.58006529798,4295.40749561014,3886.7224983901,3571.5569065135,3017.25833578941,112716598.0,110990103.0,109262178.0,107465134.0,105618671.0,EGY,EG,"Egypt, Arab Rep.",Middle East & North Africa,Cairo,31.2461,30.0982
49,Spain,ESP,EURO,REPORTING,119228502.0,121852.0,ES,Spain,32676.9837109377,29674.5442864413,30488.8209528797,26984.2962770279,29581.5185513299,48373336.0,47778340.0,47415794.0,47365655.0,47134837.0,ESP,ES,Spain,Europe & Central Asia,Madrid,-3.70327,40.4167
50,Estonia,EST,EURO,REPORTING,2205229.0,2998.0,EE,Estonia,29823.7496069016,28114.1431760201,27698.4793450267,23565.1759437969,23581.656836882,1366188.0,1348840.0,1330932.0,1329522.0,1326898.0,EST,EE,Estonia,Europe & Central Asia,Tallinn,24.7586,59.4392
51,Ethiopia,ETH,AFRO,REPORTING,68856793.0,7574.0,ET,Ethiopia,1293.7780075976,1027.49863136325,925.00069759158,918.652594077418,840.449601255171,126527060.0,123379924.0,120283026.0,117190911.0,114120594.0,ETH,ET,Ethiopia,Sub-Saharan Africa ,Addis Ababa,38.7468,9.02274
52,Finland,FIN,EURO,REPORTING,14186622.0,11466.0,FI,Finland,53755.9117362796,50734.7107480889,53504.6936483441,49169.7193388499,48629.8582283032,5584264.0,5556106.0,5541017.0,5529543.0,5521606.0,FIN,FI,Finland,Europe & Central Asia,Helsinki,24.9525,60.1608
53,France,FRA,EURO,REPORTING,158060078.0,168091.0,FR,France,44460.8178457009,40886.2532680273,43671.3084099631,39179.7442596057,40494.8982936276,68170228.0,67971311.0,67764304.0,67571107.0,67388001.0,FRA,FR,France,Europe & Central Asia,Paris,2.35097,48.8566
54,Gabon,GAB,AFRO,REPORTING,572672.0,307.0,GA,Gabon,8420.10205701827,8820.34733809998,8635.79714374956,6680.08267035383,7523.8622784598,2436566.0,2388992.0,2341179.0,2292573.0,2242785.0,GAB,GA,Gabon,Sub-Saharan Africa ,Libreville,9.45162,0.38832
55,United Kingdom of Great Britain and Northern Ireland,GBR,EURO,REPORTING,151248820.0,232112.0,GB,United Kingdom,48866.6039600298,45564.1569448013,46869.759058411,40217.0090116986,42662.5353740311,68350000.0,67791000.0,67026292.0,67081234.0,66836327.0,GBR,GB,United Kingdom,Europe & Central Asia,London,-0.126236,51.5002
56,Georgia,GEO,EURO,REPORTING,2739270.0,17150.0,GE,Georgia,8120.36344318242,6729.84659930283,5083.60695484577,4300.85701291207,4741.2832715876,3760365.0,3712502.0,3708610.0,3722716.0,3720161.0,GEO,GE,Georgia,Europe & Central Asia,Tbilisi,44.793,41.71
57,Ghana,GHA,AFRO,REPORTING,25624828.0,1462.0,GH,Ghana,2238.15802077213,2218.41475790993,2422.08591285021,2176.57621804239,2167.92527597794,34121985.0,33475870.0,32833031.0,32180401.0,31522290.0,GHA,GH,Ghana,Sub-Saharan Africa ,Accra,-0.20795,5.57045
58,Guinea,GIN,AFRO,REPORTING,12049511.0,468.0,GN,Guinea,1663.93780748118,1515.16794777612,1189.17599945874,1073.65933900139,1043.89988618266,14190612.0,13859341.0,13531906.0,13205153.0,12877539.0,GIN,GN,Guinea,Sub-Saharan Africa ,Conakry,-13.7,9.51667
59,Guadeloupe,GLP,,REPORTING,400424.0,1021.0,,,,,,,,,,,,,,,,,,,
60,Gambia,GMB,AFRO,REPORTING,1444492.0,372.0,GM,"Gambia, The",843.765742570282,803.808655006479,762.963231653559,704.030462837221,722.875356284026,2773168.0,2705992.0,2639916.0,2573995.0,2508883.0,GMB,GM,"Gambia, The",Sub-Saharan Africa ,Banjul,-16.5885,13.4495
61,Guinea-Bissau,GNB,AFRO,REPORTING,920752.0,177.0,GW,Guinea-Bissau,914.275153804104,814.111990051955,836.870024795178,754.27069401163,754.381639420495,2150842.0,2105566.0,2060721.0,2015828.0,1970457.0,GNB,GW,Guinea-Bissau,Sub-Saharan Africa ,Bissau,-15.1804,11.8037
62,Equatorial Guinea,GNQ,AFRO,REPORTING,488738.0,183.0,GQ,Equatorial Guinea,7066.61659257734,8052.25652929933,7473.92606069296,6198.94251851904,7317.39002617962,1714671.0,1674908.0,1634466.0,1596049.0,1553031.0,GNQ,GQ,Equatorial Guinea,Sub-Saharan Africa ,Malabo,8.7741,3.7523
63,Greece,GRC,EURO,REPORTING,22155251.0,39497.0,GR,Greece,22990.0135680461,20867.2690861087,20310.6824798873,17617.2915057014,19143.8876174584,10361295.0,10426919.0,10569207.0,10698599.0,10721582.0,GRC,GR,Greece,Europe & Central Asia,Athens,23.7166,37.9792
64,Grenada,GRD,AMRO,REPORTING,90686.0,238.0,GD,Grenada,10463.64593954,9762.4147210397,9010.5127999358,8437.5367823125,9887.92074235834,126183.0,125438.0,124610.0,123663.0,122724.0,GRD,GD,Grenada,Latin America & Caribbean ,Saint George's,-61.7449,12.0653
65,Guatemala,GTM,AMRO,REPORTING,20383475.0,20203.0,GT,Guatemala,5797.52159594526,5473.20856444589,5029.47755484093,4609.89725752869,4647.80754129437,17602431.0,17357886.0,17109746.0,16858333.0,16604026.0,GTM,GT,Guatemala,Latin America & Caribbean ,Guatemala City,-90.5328,14.6248
66,French Guiana,GUF,,REPORTING,242386.0,413.0,,,,,,,,,,,,,,,,,,,
67,Guyana,GUY,AMRO,REPORTING,967861.0,1302.0,GY,Guyana,20626.1991490567,18199.4748396968,9994.64570422569,6863.07434593017,6477.29672607993,813834.0,808726.0,804567.0,797202.0,798753.0,GUY,GY,Guyana,Latin America & Caribbean ,Georgetown,-58.1548,6.80461
68,Honduras,HND,AMRO,REPORTING,17074861.0,11114.0,HN,Honduras,3247.23105462683,3012.21734086324,2738.21626989704,2307.13093003215,2498.50918635232,10593798.0,10432860.0,10278345.0,10121763.0,9958829.0,HND,HN,Honduras,Latin America & Caribbean ,Tegucigalpa,-87.4667,15.1333
69,Croatia,HRV,EURO,REPORTING,5435966.0,18765.0,HR,Croatia,21459.7847808036,18673.1779905036,17943.415126673,14383.8695000306,15218.5258037621,3853200.0,3855641.0,3878981.0,4047680.0,4065253.0,HRV,HR,Croatia,Europe & Central Asia,Zagreb,15.9614,45.8069
70,Haiti,HTI,AMRO,REPORTING,680104.0,860.0,HT,Haiti,1693.06874328693,1748.25713539751,1823.74222445285,1283.14122785939,1345.4750547884,11724763.0,11584996.0,11447569.0,11306801.0,11160438.0,HTI,HT,Haiti,Latin America & Caribbean ,Port-au-Prince,-72.3288,18.5392
71,Hungary,HUN,EURO,REPORTING,16578284.0,49068.0,HU,Hungary,22147.2097290479,18355.8278072065,18755.1023464312,16131.9540355923,16786.2136399075,9589872.0,9643048.0,9709891.0,9750149.0,9771141.0,HUN,HU,Hungary,Europe & Central Asia,Budapest,19.0408,47.4984
72,Ireland,IRL,EURO,REPORTING,13122238.0,9852.0,IE,Ireland,103684.880801837,103983.29133582,102001.798249145,85973.0884875501,80848.3019020489,5262382.0,5127170.0,5033164.0,4985382.0,4934340.0,IRL,IE,Ireland,Europe & Central Asia,Dublin,-6.26749,53.3441
73,Iceland,ISL,EURO,REPORTING,903424.0,186.0,IS,Iceland,78811.0583922693,75135.0916136358,69252.3112431448,59023.5663465778,68452.23622306,393600.0,382003.0,372520.0,366463.0,360563.0,ISL,IS,Iceland,Europe & Central Asia,Reykjavik,-21.8952,64.1353
74,Israel,ISR,EURO,REPORTING,18852564.0,12707.0,IL,Israel,52261.6761509633,54930.9388075096,52129.5159612108,44846.7915954816,44452.2325623093,9756700.0,9557500.0,9371400.0,9215100.0,9054000.0,ISR,IL,Israel,Middle East & North Africa,,35.2035,31.7717
75,Italy,ITA,EURO,REPORTING,150321543.0,197542.0,IT,Italy,38373.1660497534,35068.8359738449,36441.0598048734,31922.9191626183,33673.7509627421,58761146.0,58940425.0,59133173.0,59438851.0,59729081.0,ITA,IT,Italy,Europe & Central Asia,Rome,12.4823,41.8955
76,Jamaica,JAM,AMRO,REPORTING,1529113.0,3615.0,JM,Jamaica,6874.20028399387,6047.2164436428,5183.58102957767,4897.26476180879,5626.1704590766,2825544.0,2827377.0,2827695.0,2820436.0,2813773.0,JAM,JM,Jamaica,Latin America & Caribbean ,Kingston,-76.792,17.9927
77,Japan,JPN,WPRO,REPORTING,433356604.0,74694.0,JP,Japan,33834.3921056453,34017.2718075024,40058.5373276179,40040.7655055923,40415.9567649547,124516650.0,125124989.0,125681593.0,126261000.0,126633000.0,JPN,JP,Japan,East Asia & Pacific,Tokyo,139.77,35.67
78,Kazakhstan,KAZ,EURO,REPORTING,38355605.0,19072.0,KZ,Kazakhstan,13136.6229097144,11484.4168149009,10270.8873391027,9121.63640904156,9812.59552626324,19900177.0,19634983.0,19191356.0,18755666.0,18513673.0,KAZ,KZ,Kazakhstan,Europe & Central Asia,Astana,71.4382,51.1879
79,Kenya,KEN,AFRO,REPORTING,23750431.0,5689.0,KE,Kenya,1949.89896909713,2099.29856841025,2069.66112881918,1936.25075454374,1970.08007048615,55100586.0,54027487.0,53005614.0,51985780.0,50951450.0,KEN,KE,Kenya,Sub-Saharan Africa ,Nairobi,36.8126,-1.27975
80,Kyrgyzstan,KGZ,EURO,REPORTING,3167393.0,1024.0,KG,Kyrgyz Republic,1969.86648107793,1739.79999970559,1365.50830399287,1256.92922601263,1451.51563835807,7100800.0,6974900.0,6773400.0,6579900.0,6456200.0,KGZ,KG,Kyrgyz Republic,Europe & Central Asia,Bishkek,74.6057,42.8851
81,Cambodia,KHM,WPRO,REPORTING,47826645.0,3056.0,KH,Cambodia,1875.07148192948,1759.60802346044,1625.23502147979,1577.91173991645,1671.3854000919,16944826.0,16767842.0,16589023.0,16396860.0,16207746.0,KHM,KH,Cambodia,East Asia & Pacific,Phnom Penh,104.874,11.5556
82,Saint Kitts and Nevis,KNA,AMRO,REPORTING,64297.0,46.0,KN,St. Kitts and Nevis,22553.3056457148,20593.609115757,18036.0085330047,18553.423916339,23219.6419256278,47755.0,47657.0,47606.0,47642.0,47712.0,KNA,KN,St. Kitts and Nevis,Latin America & Caribbean ,Basseterre,-62.7309,17.3
83,Kuwait,KWT,EMRO,REPORTING,8261221.0,2570.0,KW,Kuwait,37533.2177177327,42823.8278348699,33358.4631538575,24656.4337134064,31230.1729499142,4310108.0,4268873.0,4250114.0,4360444.0,4441100.0,KWT,KW,Kuwait,Middle East & North Africa,Kuwait City,47.9824,29.3721
84,Liberia,LBR,AFRO,REPORTING,4460668.0,294.0,LR,Liberia,799.501400511629,754.53284857226,676.44292696753,624.289710007737,665.878447568436,5418377.0,5302681.0,5193416.0,5087584.0,4985289.0,LBR,LR,Liberia,Sub-Saharan Africa ,Monrovia,-10.7957,6.30039
85,Libya,LBY,EMRO,REPORTING,3653384.0,6437.0,LY,Libya,7329.97654106843,8211.38094790285,7094.99982017328,9872.11114427602,10972.902519068,6888388.0,6812341.0,6735277.0,6653942.0,6569088.0,LBY,LY,Libya,Middle East & North Africa,Tripoli,13.1072,32.8578
86,Saint Lucia,LCA,AMRO,REPORTING,122977.0,410.0,LC,St. Lucia,13980.0940828315,13030.9289500727,10213.1154384479,8356.67855538872,11714.8975491757,180251.0,179857.0,179651.0,179237.0,178583.0,LCA,LC,St. Lucia,Latin America & Caribbean ,Castries,-60.9832,14
87,Lesotho,LSO,AFRO,REPORTING,1339097.0,709.0,LS,Lesotho,878.008505473734,992.857328462257,1054.9327396161,910.93494753765,1074.1340466189,2330318.0,2305825.0,2281454.0,2254100.0,2225702.0,LSO,LS,Lesotho,Sub-Saharan Africa ,Maseru,27.7167,-29.5208
88,Lithuania,LTU,EURO,REPORTING,4532649.0,9824.0,LT,Lithuania,27102.7815282971,25078.7453655669,23849.6156993566,20381.8557827478,19615.5491450175,2871897.0,2831639.0,2800839.0,2794885.0,2794137.0,LTU,LT,Lithuania,Europe & Central Asia,Vilnius,25.2799,54.6896
89,Luxembourg,LUX,EURO,REPORTING,1337940.0,1000.0,LU,Luxembourg,128259.402583282,125006.021815486,133711.794435985,116905.370396853,112726.439672814,668606.0,653103.0,640064.0,630419.0,620001.0,LUX,LU,Luxembourg,Europe & Central Asia,Luxembourg,6.1296,49.61
90,Latvia,LVA,EURO,REPORTING,2979624.0,7475.0,LV,Latvia,23184.3116680149,21508.4003332167,20930.3982374189,18096.2027073394,17883.3494113217,1881750.0,1879383.0,1884490.0,1900449.0,1913822.0,LVA,LV,Latvia,Europe & Central Asia,Riga,24.1048,56.9465
91,Morocco,MAR,EMRO,REPORTING,55389602.0,16305.0,MA,Morocco,3672.1123046875,3441.99145507813,3767.52490234375,3258.26904296875,3498.58276367188,37840044.0,37457971.0,37076584.0,36688772.0,36304408.0,MAR,MA,Morocco,Middle East & North Africa,Rabat,-6.8704,33.9905
92,Monaco,MCO,EURO,REPORTING,71929.0,67.0,MC,Monaco,,240862.18244774,235132.784182144,182537.387370109,199382.838585354,36297.0,36469.0,36686.0,36922.0,37034.0,MCO,MC,Monaco,Europe & Central Asia,Monaco,7.41891,43.7325
93,Republic of Moldova,MDA,EURO,REPORTING,2293086.0,12274.0,MD,Moldova,6650.64795654292,5715.28022054154,5274.60582195352,4375.7788930524,4405.33418162155,2486891.0,2538894.0,2595809.0,2635130.0,2664224.0,MDA,MD,Moldova,Europe & Central Asia,Chisinau,28.8497,47.0167
94,Madagascar,MDG,AFRO,REPORTING,3092063.0,1428.0,MG,Madagascar,528.650154757007,516.772196977613,503.352081190858,462.404228818383,512.27966560241,30325732.0,29611714.0,28915653.0,28225177.0,27533134.0,MDG,MG,Madagascar,Sub-Saharan Africa ,Antananarivo,45.7167,-20.4667
95,Mexico,MEX,AMRO,REPORTING,222226293.0,334724.0,MX,Mexico,13926.1136190914,11476.6788057764,10363.1927221972,8895.61521605941,10434.5676193955,128455567.0,127504125.0,126705138.0,125998302.0,125085311.0,MEX,MX,Mexico,Latin America & Caribbean ,Mexico City,-99.1276,19.427
96,North Macedonia,MKD,EURO,REPORTING,1862987.0,9981.0,MK,North Macedonia,8146.46797547749,7485.6034579418,7620.80296977508,6659.59651070776,6718.85826635458,1811980.0,1831712.0,1837114.0,1856124.0,1876262.0,MKD,MK,North Macedonia,Europe & Central Asia,Skopje,21.4361,42.0024
97,Mali,MLI,AFRO,REPORTING,5922585.0,743.0,ML,Mali,897.448670290571,831.223466645115,881.510088733585,822.906136832132,840.175746366299,23293698.0,22593590.0,21904983.0,21224040.0,20567424.0,MLI,ML,Mali,Sub-Saharan Africa ,Bamako,-7.50034,13.5667
98,Malta,MLT,EURO,REPORTING,1282437.0,923.0,MT,Malta,37882.2651856816,34563.3966270232,34951.7081679971,29592.5714840718,31751.1811756369,553214.0,531113.0,518536.0,515332.0,504062.0,MLT,MT,Malta,Middle East & North Africa,Valletta,14.5189,35.9042
99,Montenegro,MNE,EURO,REPORTING,526975.0,2654.0,ME,Montenegro,12016.907421906,10093.4387007266,9465.96153027794,7677.37132106817,8909.6538759126,616177.0,617213.0,619211.0,621306.0,622028.0,MNE,ME,Montenegro,Europe & Central Asia,Podgorica,19.2595,42.4602
100,Mozambique,MOZ,AFRO,REPORTING,34950858.0,2252.0,MZ,Mozambique,608.442707550256,558.298592504349,504.037758654687,456.581918375225,512.215756850012,33897354.0,32969518.0,32077072.0,31178239.0,30285595.0,MOZ,MZ,Mozambique,Sub-Saharan Africa ,Maputo,32.5713,-25.9664
101,Mauritania,MRT,AFRO,REPORTING,4075874.0,997.0,MR,Mauritania,2149.41408725335,2057.38039245817,1998.39400265586,1836.29241098592,1800.87518658218,4862989.0,4736139.0,4614974.0,4498604.0,4383849.0,MRT,MR,Mauritania,Sub-Saharan Africa ,Nouakchott,-15.9824,18.2367
102,Montserrat,MSR,AMRO,REPORTING,4619.0,8.0,,,,,,,,,,,,,,,,,,,
103,Mauritius,MUS,AFRO,REPORTING,2616012.0,1074.0,MU,Mauritius,11416.858992993,10239.7970461095,9068.97292976686,9011.04288445023,11403.2527870674,1261041.0,1262523.0,1266334.0,1266014.0,1265985.0,MUS,MU,Mauritius,Sub-Saharan Africa ,Port Louis,57.4977,-20.1605
104,Malawi,MWI,AFRO,REPORTING,8503954.0,2686.0,MW,Malawi,672.869702222595,643.433195658657,632.533192648231,621.417772482775,587.115464659464,20931751.0,20405317.0,19889742.0,19377061.0,18867337.0,MWI,MW,Malawi,Sub-Saharan Africa ,Lilongwe,33.7703,-13.9899
105,Malaysia,MYS,WPRO,REPORTING,72647279.0,37351.0,MY,Malaysia,11648.6741574144,11993.1876132994,11134.6229528189,10164.344431073,11132.1027429418,34308525.0,33938221.0,33573874.0,33199993.0,32804020.0,MYS,MY,Malaysia,East Asia & Pacific,Kuala Lumpur,101.684,3.12433
106,Namibia,NAM,AFRO,REPORTING,1005937.0,4110.0,NA,Namibia,4742.78382677745,4895.68066089139,4901.87588947838,4252.04172014353,5126.17614281673,2604172.0,2567012.0,2530151.0,2489098.0,2446644.0,NAM,NA,Namibia,Sub-Saharan Africa ,Windhoek,17.0931,-22.5648
107,Niger,NER,AFRO,REPORTING,7372208.0,315.0,NE,Niger,618.28722904313,588.899048266729,590.629494755814,564.841662320132,549.81612777766,27202843.0,26207977.0,25252722.0,24333639.0,23443393.0,NER,NE,Niger,Sub-Saharan Africa ,Niamey,2.1073,13.514
108,Nigeria,NGA,AFRO,REPORTING,133048021.0,3155.0,NG,Nigeria,1621.12351497744,2162.6337321033,2065.77441035114,2074.61374785422,2334.02364195898,223804632.0,218541212.0,213401323.0,208327405.0,203304492.0,NGA,NG,Nigeria,Sub-Saharan Africa ,Abuja,7.48906,9.05804
109,Nicaragua,NIC,AMRO,REPORTING,15507763.0,245.0,NI,Nicaragua,2530.29107203624,2252.31020571776,2064.6646185055,1877.10855537062,1905.64091736446,7046310.0,6948392.0,6850540.0,6755895.0,6663924.0,NIC,NI,Nicaragua,Latin America & Caribbean ,Managua,-86.2734,12.1475
110,Norway,NOR,EURO,REPORTING,13020641.0,5732.0,NO,Norway,87961.7806135072,108798.451165901,93072.8925119571,68340.0181033702,76430.5889473338,5519594.0,5457127.0,5408320.0,5379475.0,5347896.0,NOR,NO,Norway,Europe & Central Asia,Oslo,10.7387,59.9138
111,Panama,PAN,AMRO,REPORTING,9201276.0,8754.0,PA,Panama,18661.7673290605,17357.6286293985,15491.2898013383,13293.3331951688,16472.8317470488,4468087.0,4408581.0,4351267.0,4294396.0,4232532.0,PAN,PA,Panama,Latin America & Caribbean ,Panama City,-79.5188,8.99427
112,Peru,PER,AMRO,REPORTING,91328338.0,220975.0,PE,Peru,7789.87097514036,7239.11131130898,6713.66205386496,6047.47546434312,6956.49574886694,34352719.0,34049588.0,33715471.0,33304756.0,32824861.0,PER,PE,Peru,Latin America & Caribbean ,Lima,-77.0465,-12.0931
113,Papua New Guinea,PNG,WPRO,REPORTING,543670.0,670.0,PG,Papua New Guinea,2994.4533269188,3115.92292253449,2624.60410978363,2446.08468660615,2593.77555393227,10329931.0,10142619.0,9949437.0,9749640.0,9542486.0,PNG,PG,Papua New Guinea,East Asia & Pacific,Port Moresby,147.194,-9.47357
114,Poland,POL,EURO,REPORTING,58634593.0,120816.0,PL,Poland,22112.861574706,18732.4977273198,18050.2778862996,15816.819050319,15700.0135796738,36685849.0,36821749.0,37747124.0,37899070.0,37965475.0,POL,PL,Poland,Europe & Central Asia,Warsaw,21.02,52.26
115,Puerto Rico,PRI,AMRO,REPORTING,7846764.0,5938.0,PR,Puerto Rico,36779.0594913858,35268.0791015719,32619.250416757,31427.4291136799,32916.866800639,3205691.0,3220113.0,3262693.0,3281557.0,3193694.0,PRI,PR,Puerto Rico,Latin America & Caribbean ,San Juan,-66,18.23
116,Portugal,PRT,EURO,REPORTING,27360186.0,28977.0,PT,Portugal,27275.1115544691,24515.2657495716,24661.1664874576,22242.406417972,23330.817288932,10525347.0,10409704.0,10361831.0,10297081.0,10286263.0,PRT,PT,Portugal,Europe & Central Asia,Lisbon,-9.13552,38.7072
117,Paraguay,PRY,AMRO,REPORTING,9954852.0,19880.0,PY,Paraguay,6260.45519099666,6187.0660296399,5959.44179393627,5353.34806456279,5807.83879407975,6861524.0,6780744.0,6703799.0,6618695.0,6530026.0,PRY,PY,Paraguay,Latin America & Caribbean ,Asuncion,-57.6362,-25.3005
118,Romania,ROU,EURO,REPORTING,16112261.0,68899.0,RO,Romania,18419.4187120644,15692.3071700143,14946.624968678,13047.4566563993,12957.9991142218,19056116.0,19047009.0,19122059.0,19265250.0,19371648.0,ROU,RO,Romania,Europe & Central Asia,Bucharest,26.0979,44.4479
119,Russian Federation,RUS,EURO,REPORTING,187374508.0,403352.0,RU,Russian Federation,13817.0458984375,15445.2421875,12521.5224609375,10108.3271484375,11447.701171875,143826130.0,144236933.0,144746762.0,145245148.0,145453291.0,RUS,RU,Russian Federation,Europe & Central Asia,Moscow,37.6176,55.7558
120,Rwanda,RWA,AFRO,REPORTING,27322059.0,1468.0,RW,Rwanda,1000.21892281433,966.571293318523,822.26804122921,773.931800619504,806.332472032037,14094683.0,13776698.0,13461888.0,13146362.0,12835028.0,RWA,RW,Rwanda,Sub-Saharan Africa ,Kigali,30.0587,-1.95325
121,Sudan,SDN,EMRO,REPORTING,28662107.0,5046.0,SD,Sudan,2272.48559570313,1102.24536132813,749.706787109375,608.33251953125,748.010925292969,48109006.0,46874204.0,45657202.0,44440486.0,43232093.0,SDN,SD,Sudan,Sub-Saharan Africa ,Khartoum,32.5363,15.5932
122,Senegal,SEN,AFRO,REPORTING,3182308.0,1972.0,SN,Senegal,1745.97206754147,1594.98515311153,1630.69507165793,1492.47590293523,1462.67835252138,17763163.0,17316449.0,16876720.0,16436120.0,16000781.0,SEN,SN,Senegal,Sub-Saharan Africa ,Dakar,-17.4734,14.7247
123,Sierra Leone,SLE,AFRO,REPORTING,9155936.0,126.0,SL,Sierra Leone,433.37417433006,475.795727844622,504.621287621531,493.432240551423,506.606913779078,8791092.0,8605718.0,8420641.0,8233970.0,8046828.0,SLE,SL,Sierra Leone,Sub-Saharan Africa ,Freetown,-13.2134,8.4821
124,El Salvador,SLV,AMRO,REPORTING,11459448.0,4230.0,SV,El Salvador,5344.21439437871,5048.443972532,4599.67878581609,3960.31389233069,4280.28840404719,6364943.0,6336392.0,6314167.0,6292731.0,6280217.0,SLV,SV,El Salvador,Latin America & Caribbean ,San Salvador,-89.2073,13.7034
125,San Marino,SMR,EURO,REPORTING,69338.0,126.0,SM,San Marino,,,54982.451714817,45321.4892226161,47287.3983948633,33642.0,33660.0,33745.0,34007.0,34178.0,SMR,SM,San Marino,Europe & Central Asia,San Marino,12.4486,43.9322
126,Somalia,SOM,EMRO,REPORTING,8784760.0,1361.0,SO,Somalia,643.750028806778,592.103121972141,576.523678242099,556.578066029332,589.465891901627,18143378.0,17597511.0,17065581.0,16537016.0,15981300.0,SOM,SO,Somalia,Sub-Saharan Africa ,Mogadishu,45.3254,2.07515
127,Serbia,SRB,EURO,REPORTING,6722671.0,18057.0,RS,Serbia,11360.9595106966,9537.68431879504,9232.95770463789,7733.80346893763,7417.20660836868,6618026.0,6664449.0,6834326.0,6899126.0,6945235.0,SRB,RS,Serbia,Europe & Central Asia,Belgrade,20.4656,44.8024
128,South Sudan,SSD,AFRO,REPORTING,4365547.0,147.0,SS,South Sudan,,,,,,11088796.0,10913164.0,10748272.0,10606227.0,10447666.0,SSD,SS,South Sudan,Sub-Saharan Africa ,Juba,31.6,4.85
129,Sao Tome and Principe,STP,AFRO,REPORTING,263863.0,80.0,ST,Sao Tome and Principe,2601.79054652115,2386.6961758184,2350.45270097134,2155.26586782508,1924.40814952173,231856.0,227380.0,223107.0,218641.0,214599.0,STP,ST,Sao Tome and Principe,Sub-Saharan Africa ,Sao Tome,6.6071,0.20618
130,Suriname,SUR,AMRO,REPORTING,554588.0,1406.0,SR,Suriname,6069.02890083889,5858.82466074423,5026.87949279073,4796.53331389928,6690.04478601228,623236.0,618040.0,612985.0,607065.0,600301.0,SUR,SR,Suriname,Latin America & Caribbean ,Paramaribo,-55.1679,5.8232
131,Slovakia,SVK,EURO,REPORTING,7222380.0,21231.0,SK,Slovak Republic,24470.238537883,21279.4589247729,21765.722502093,19553.2609613643,19381.8905468746,5426740.0,5431752.0,5447247.0,5458827.0,5454147.0,SVK,SK,Slovak Republic,Europe & Central Asia,Bratislava,17.1073,48.1484
132,Slovenia,SVN,EURO,REPORTING,3028400.0,9710.0,SI,Slovenia,32163.5114152484,28439.3340989687,29331.0647010043,25558.4290544506,26042.4463468032,2120937.0,2111986.0,2108079.0,2102419.0,2088385.0,SVN,SI,Slovenia,Europe & Central Asia,Ljubljana,14.5044,46.0546
133,Sweden,SWE,EURO,REPORTING,23237123.0,27734.0,SE,Sweden,56305.250200767,56299.5057328064,61417.6808766469,52837.9039778149,51939.4297445291,10536632.0,10486941.0,10415811.0,10353442.0,10278887.0,SWE,SE,Sweden,Europe & Central Asia,Stockholm,18.0645,59.3327
134,Eswatini,SWZ,AFRO,REPORTING,870205.0,1427.0,SZ,Eswatini,3797.30120946164,3986.88723918267,4068.57378984532,3372.90461128068,3843.38004601919,1210822.0,1201670.0,1192271.0,1180655.0,1169613.0,SWZ,SZ,Eswatini,Sub-Saharan Africa ,Mbabane,31.4659,-26.5225
135,Seychelles,SYC,AFRO,REPORTING,224558.0,172.0,SC,Seychelles,17879.2396545075,17167.1909760833,14982.9111487767,14041.4754074575,19141.5118743615,119773.0,119878.0,99258.0,98462.0,97625.0,SYC,SC,Seychelles,Sub-Saharan Africa ,Victoria,55.4466,-4.6309
136,Turks and Caicos Islands,TCA,AMRO,REPORTING,73907.0,40.0,TC,Turks and Caicos Islands,30438.4175881929,26886.514735383,23180.8851703573,17496.017465787,27327.8832805295,46062.0,45703.0,45114.0,44276.0,43080.0,TCA,TC,Turks and Caicos Islands,Latin America & Caribbean ,Grand Turk,-71.141389,21.4602778
137,Chad,TCD,AFRO,REPORTING,9151765.0,194.0,TD,Chad,719.384875157521,699.463254485574,685.690314996618,643.772215694009,701.621201027424,18278568.0,17723315.0,17179740.0,16644701.0,16126866.0,TCD,TD,Chad,Sub-Saharan Africa ,N'Djamena,15.0445,12.1048
138,Togo,TGO,AFRO,REPORTING,3423181.0,290.0,TG,Togo,1012.9738726321,923.240371150258,964.998109961965,876.542972383418,848.310124981212,9053799.0,8848699.0,8644829.0,8442580.0,8243094.0,TGO,TG,Togo,Sub-Saharan Africa ,Lome,1.2255,6.1228
139,Tajikistan,TJK,EURO,REPORTING,20568163.0,125.0,TJ,Tajikistan,1188.99303811773,1076.43469114729,916.691967061922,852.330202064927,889.023340713117,10143543.0,9952787.0,9750064.0,9543207.0,9337003.0,TJK,TJ,Tajikistan,Europe & Central Asia,Dushanbe,68.7864,38.5878
140,Turkmenistan,TKM,EURO,REPORTING,16775970.0,0.0,TM,Turkmenistan,9190.67154341786,8792.5485039672,7885.29989591824,7330.36628793054,7344.88020350303,6516100.0,6430770.0,6341855.0,6250438.0,6158420.0,TKM,TM,Turkmenistan,Europe & Central Asia,Ashgabat,58.3794,37.9509
141,Trinidad and Tobago,TTO,AMRO,REPORTING,1592148.0,4390.0,TT,Trinidad and Tobago,18332.9640176054,19629.4653400829,16056.3020409273,13705.900228571,15642.4067190576,1534937.0,1531044.0,1525663.0,1518147.0,1519955.0,TTO,TT,Trinidad and Tobago,Latin America & Caribbean ,Port-of-Spain,-61.4789,10.6596
142,Tunisia,TUN,EMRO,REPORTING,16553338.0,29423.0,TN,Tunisia,3895.38663874079,3607.91023773078,3817.37717375123,3493.89773765706,3477.83618091653,12458223.0,12356117.0,12262946.0,12161723.0,12049314.0,TUN,TN,Tunisia,Middle East & North Africa,Tunis,10.21,36.7899
143,United Republic of Tanzania,TZA,AFRO,REPORTING,39392419.0,846.0,TZ,Tanzania,1211.05859375,1193.35961914063,1146.03198242188,1104.16442871094,1050.93176269531,67438106.0,65497748.0,63588334.0,61704518.0,59872579.0,TZA,TZ,Tanzania,Sub-Saharan Africa ,Dodoma,35.7382,-6.17486
144,Uganda,UGA,AFRO,REPORTING,26406936.0,3632.0,UG,Uganda,1014.21397773156,964.354146526666,883.892026171965,846.76720261962,823.024732902811,48582334.0,47249585.0,45853778.0,44404611.0,42949080.0,UGA,UG,Uganda,Sub-Saharan Africa ,Kampala,32.5729,0.314269
145,Ukraine,UKR,EURO,REPORTING,35735488.0,109923.0,UA,Ukraine,5181.36279296875,4575.97509765625,4827.845703125,3751.7373046875,3661.45776367188,37000000.0,38000000.0,43848986.0,44207754.0,44474512.0,UKR,UA,Ukraine,Europe & Central Asia,Kiev,30.5038,50.4536
146,Uruguay,URY,AMRO,REPORTING,9037498.0,7682.0,UY,Uruguay,22564.5324620687,20499.2422244452,17733.8551643902,15651.0033775375,18149.0562908315,3423108.0,3422794.0,3426260.0,3429086.0,3428409.0,URY,UY,Uruguay,Latin America & Caribbean ,Montevideo,-56.0675,-34.8941
147,United States of America,USA,AMRO,REPORTING,711813790.0,1201488.0,US,United States,81695.1870713305,77246.6738828672,71055.8761938303,64317.398912504,65548.0707847572,334914895.0,333271411.0,332048977.0,331526933.0,328329953.0,USA,US,United States,North America,Washington D.C.,-77.032,38.8895
148,Uzbekistan,UZB,EURO,REPORTING,83937954.0,1016.0,UZ,Uzbekistan,2496.10775758036,2276.16123306477,1993.42447787206,1759.30747053678,1795.20176845657,36412350.0,35648100.0,34915100.0,34232050.0,33580350.0,UZB,UZ,Uzbekistan,Europe & Central Asia,Tashkent,69.269,41.3052
149,Saint Vincent and the Grenadines,VCT,AMRO,REPORTING,73443.0,124.0,VC,St. Vincent and the Grenadines,10279.4939435955,9297.84692916259,8360.09973858381,8306.36049307201,8680.25110238522,103698.0,103948.0,104332.0,104632.0,104924.0,VCT,VC,St. Vincent and the Grenadines,Latin America & Caribbean ,Kingstown,-61.2653,13.2035
150,Venezuela (Bolivarian Republic of),VEN,AMRO,REPORTING,37860994.0,5856.0,VE,"Venezuela, RB",,,,,,28838499.0,28301696.0,28199867.0,28490453.0,28971683.0,VEN,VE,"Venezuela, RB",Latin America & Caribbean ,Caracas,-69.8371,9.08165
151,British Virgin Islands,VGB,AMRO,REPORTING,41453.0,64.0,VG,British Virgin Islands,,,,,,31538.0,31305.0,31122.0,30910.0,30610.0,VGB,VG,British Virgin Islands,Latin America & Caribbean ,Road Town,-64.623056,18.431389
152,Yemen,YEM,EMRO,REPORTING,1298654.0,2159.0,YE,"Yemen, Rep.",533.367123496464,698.850349965249,583.849041342565,626.309168909111,693.816507640113,34449825.0,33696614.0,32981641.0,32284046.0,31546691.0,YEM,YE,"Yemen, Rep.",Middle East & North Africa,Sana'a,44.2075,15.352
153,South Africa,ZAF,AFRO,REPORTING,41798812.0,102595.0,ZA,South Africa,6253.16161272014,6766.48125428394,7073.61275415525,5753.06649434631,6702.52661671812,60414495.0,59893885.0,59392255.0,58801927.0,58087055.0,ZAF,ZA,South Africa,Sub-Saharan Africa ,Pretoria,28.1871,-25.746
154,Zambia,ZMB,AFRO,REPORTING,13615707.0,4078.0,ZM,Zambia,1369.12936484937,1456.90157026157,1134.71345415843,958.264900505992,1268.12094056241,20569737.0,20017675.0,19473125.0,18927715.0,18380477.0,ZMB,ZM,Zambia,Sub-Saharan Africa ,Lusaka,28.2937,-15.3982
155,Zimbabwe,ZWE,AFRO,REPORTING,13935112.0,5740.0,ZW,Zimbabwe,1592.41657368542,1676.82148896788,1773.92041088078,1372.69667433317,1421.86859641758,16665409.0,16320537.0,15993524.0,15669666.0,15354608.0,ZWE,ZW,Zimbabwe,Sub-Saharan Africa ,Harare,31.0672,-17.8312
156,United Arab Emirates,ARE,EMRO,REPORTING,24922054.0,2349.0,AE,United Arab Emirates,52976.8083782405,53707.9800813801,44332.3400499381,37629.1741680652,45376.1708390447,9516871.0,9441129.0,9365145.0,9287289.0,9211657.0,ARE,AE,United Arab Emirates,Middle East & North Africa,Abu Dhabi,54.3705,24.4764
157,Bangladesh,BGD,SEARO,REPORTING,362229859.0,29499.0,BD,Bangladesh,2529.08012688018,2687.89906307087,2457.96446570157,2233.76728192962,2122.03765230231,172954319.0,171186372.0,169356251.0,167420951.0,165516222.0,BGD,BD,Bangladesh,South Asia,Dhaka,90.4113,23.7055
158,Bahrain,BHR,EMRO,REPORTING,3476633.0,1536.0,BH,Bahrain,29084.3071297448,30146.925026365,26850.0033915702,23433.1872362574,25869.1129129041,1485509.0,1472233.0,1463265.0,1477469.0,1494188.0,BHR,BH,Bahrain,Middle East & North Africa,Manama,50.5354,26.1921
159,Brunei Darussalam,BRN,WPRO,REPORTING,1293100.0,181.0,BN,Brunei Darussalam,33430.9184783787,37152.4769749763,31448.9127482937,27179.3528869398,30748.3092371228,452524.0,449002.0,445373.0,441725.0,438048.0,BRN,BN,Brunei Darussalam,East Asia & Pacific,Bandar Seri Begawan,114.946,4.94199
160,Bhutan,BTN,SEARO,REPORTING,2011426.0,21.0,BT,Bhutan,,3704.01839495326,3561.22528660505,3181.33974675871,3564.59877149986,787424.0,782455.0,777486.0,772506.0,767459.0,BTN,BT,Bhutan,South Asia,Thimphu,89.6177,27.5768
161,China,CHN,WPRO,REPORTING,3516880717.0,122358.0,CN,China,12614.0609948923,12662.5831692254,12617.5051041181,10408.7195541075,10143.8602206165,1410710000.0,1412175000.0,1412360000.0,1411100000.0,1407745000.0,CHN,CN,China,East Asia & Pacific,Beijing,116.286,40.0495
162,Cook Islands,COK,WPRO,REPORTING,40080.0,2.0,,,,,,,,,,,,,,,,,,,
163,Fiji,FJI,WPRO,REPORTING,1555182.0,885.0,FJ,Fiji,5868.1591677839,5356.16438036291,4656.0513619168,4815.68912941764,5927.72418996345,936375.0,929766.0,924610.0,920422.0,918465.0,FJI,FJ,Fiji,East Asia & Pacific,Suva,178.399,-18.1149
164,Gibraltar,GIB,,REPORTING,,113.0,GI,Gibraltar,,,,,,32688.0,32649.0,32669.0,32709.0,32685.0,GIB,GI,Gibraltar,Europe & Central Asia,,,
165,Greenland,GRL,EURO,REPORTING,,21.0,GL,Greenland,,,57116.295770722,54693.0766804265,53309.2035905065,56865.0,56661.0,56653.0,56367.0,56225.0,GRL,GL,Greenland,Europe & Central Asia,Nuuk,-51.7214,64.1836
166,Indonesia,IDN,SEARO,REPORTING,448199860.0,162059.0,ID,Indonesia,4940.54980501156,4787.91236404903,4334.23145407913,3895.61815200225,4151.22755440796,277534122.0,275501339.0,273753191.0,271857970.0,269582878.0,IDN,ID,Indonesia,East Asia & Pacific,Jakarta,106.83,-6.19752
167,India,IND,SEARO,REPORTING,2208365081.0,533641.0,IN,India,2484.8454294403,2366.30960899931,2250.1790176424,1915.55158799947,2050.16380022056,1428627663.0,1417173173.0,1407563842.0,1396387127.0,1383112050.0,IND,IN,India,South Asia,New Delhi,77.225,28.6353
168,Iran (Islamic Republic of),IRN,EMRO,REPORTING,155461757.0,146837.0,IR,"Iran, Islamic Rep.",4502.5463291805,4668.45744305826,4084.20030478647,2746.41948317591,3276.75326508226,89172767.0,88550570.0,87923432.0,87290193.0,86564202.0,IRN,IR,"Iran, Islamic Rep.",Middle East & North Africa,Tehran,51.4447,35.6878
169,Iraq,IRQ,EMRO,REPORTING,19557364.0,25375.0,IQ,Iraq,5512.47571978422,6441.91736451813,4816.78483395313,4250.74290829159,5621.18169491752,45504560.0,44496122.0,43533592.0,42556984.0,41563520.0,IRQ,IQ,Iraq,Middle East & North Africa,Baghdad,44.394,33.3302
170,Jordan,JOR,EMRO,REPORTING,10057975.0,14122.0,JO,Jordan,4482.08602630337,4311.0000506816,4152.75795426388,3998.67313829235,4159.6537537759,11337052.0,11285869.0,11148278.0,10928721.0,10698683.0,JOR,JO,Jordan,Middle East & North Africa,Amman,35.9263,31.9497
171,Kiribati,KIR,WPRO,REPORTING,219980.0,24.0,KI,Kiribati,2089.91016071918,2061.39304132408,2244.11073068747,1763.15507074083,1745.7324153971,133515.0,131232.0,128874.0,126463.0,124241.0,KIR,KI,Kiribati,East Asia & Pacific,Tarawa,172.979,1.32905
172,Republic of Korea,KOR,WPRO,REPORTING,135927574.0,35934.0,KR,"Korea, Rep.",33121.3712885508,32394.6833725203,35125.5224984723,31721.2989141857,31902.4169048194,51712619.0,51672569.0,51769539.0,51836239.0,51764822.0,KOR,KR,"Korea, Rep.",East Asia & Pacific,Seoul,126.957,37.5323
173,Lao People's Democratic Republic,LAO,WPRO,REPORTING,13879410.0,671.0,LA,Lao PDR,2075.40141406441,2054.43078086496,2535.62343439717,2593.35571817336,2598.50579475158,7633779.0,7529475.0,7425057.0,7319399.0,7212053.0,LAO,LA,Lao PDR,East Asia & Pacific,Vientiane,102.177,18.5826
174,Lebanon,LBN,EMRO,REPORTING,5814699.0,10947.0,LB,Lebanon,,3823.93806860546,4136.14657516013,5599.95752260733,8925.42186017072,5353930.0,5489739.0,5592631.0,5662923.0,5781907.0,LBN,LB,Lebanon,Middle East & North Africa,Beirut,35.5134,33.8872
175,Liechtenstein,LIE,,REPORTING,71104.0,89.0,LI,Liechtenstein,,187267.132380803,197504.548936258,165287.186766512,167259.160311816,39584.0,39327.0,39039.0,38756.0,38482.0,LIE,LI,Liechtenstein,Europe & Central Asia,Vaduz,9.52148,47.1411
176,Sri Lanka,LKA,SEARO,REPORTING,40116590.0,16907.0,LK,Sri Lanka,3827.96480560557,3342.72012524497,3999.33800155592,3846.17449566736,4082.69404871533,22037000.0,22181000.0,22156000.0,21919000.0,21803000.0,LKA,LK,Sri Lanka,South Asia,Colombo,79.8528,6.92148
177,Maldives,MDV,SEARO,REPORTING,951764.0,316.0,MV,Maldives,12667.4356695795,11780.8169089988,10076.317533903,7216.81637703018,11349.8592675975,521021.0,523787.0,521457.0,514438.0,504508.0,MDV,MV,Maldives,South Asia,Male,73.5109,4.1742
178,Myanmar,MMR,SEARO,REPORTING,93477104.0,19494.0,MM,Myanmar,1187.56706423461,1149.01896107058,1233.22776997352,1478.87278562378,1415.24898557512,54577997.0,54179306.0,53798084.0,53423198.0,53040212.0,MMR,MM,Myanmar,East Asia & Pacific,Naypyidaw,95.9562,21.914
179,Mongolia,MNG,WPRO,REPORTING,5668144.0,2136.0,MN,Mongolia,5764.80281276063,5045.50472602069,4566.14013029182,4041.17414564367,4394.94715044543,3447157.0,3398366.0,3347782.0,3294335.0,3232430.0,MNG,MN,Mongolia,East Asia & Pacific,Ulaanbaatar,106.937,47.9129
180,New Caledonia,NCL,WPRO,REPORTING,480497.0,314.0,NC,New Caledonia,,35745.8489248912,37247.4931167883,34877.6356349199,34934.5794300065,267940.0,269215.0,270390.0,271080.0,271240.0,NCL,NC,New Caledonia,East Asia & Pacific,Noum'ea,166.464,-22.2677
181,Niue,NIU,WPRO,REPORTING,4923.0,0.0,,,,,,,,,,,,,,,,,,,
182,Nepal,NPL,SEARO,REPORTING,62627629.0,12031.0,NP,Nepal,1324.03198433372,1348.15718956035,1229.39420401521,1139.18989468388,1185.68231827815,30896590.0,30547580.0,30034989.0,29348627.0,28832496.0,NPL,NP,Nepal,South Asia,Kathmandu,85.3157,27.6939
183,Nauru,NRU,WPRO,REPORTING,32157.0,1.0,NR,Nauru,12060.0781059109,12142.769929785,14018.8858357941,10124.7006220945,10316.5278229326,12780.0,12668.0,12511.0,12315.0,12132.0,NRU,NR,Nauru,East Asia & Pacific,Yaren District,166.920867,-0.5477
184,New Zealand,NZL,WPRO,REPORTING,12252378.0,4424.0,NZ,New Zealand,48527.828920018,48216.5095836302,49624.1816729553,41785.6922905898,42747.2099299966,5223100.0,5117200.0,5111300.0,5090200.0,4979200.0,NZL,NZ,New Zealand,East Asia & Pacific,Wellington,174.776,-41.2865
185,Oman,OMN,EMRO,REPORTING,7108547.0,4628.0,OM,Oman,23295.3299592198,25056.7948608378,19509.4664633867,16707.6230063214,19132.1522739094,4644384.0,4576298.0,4520471.0,4543399.0,4602768.0,OMN,OM,Oman,Middle East & North Africa,Muscat,58.5874,23.6105
186,Pakistan,PAK,EMRO,REPORTING,340974144.0,30656.0,PK,Pakistan,1407.02135059495,1589.26398049714,1506.10829305917,1322.31478539554,1437.1658330724,240485658.0,235824862.0,231402117.0,227196741.0,223293280.0,PAK,PK,Pakistan,South Asia,Islamabad,72.8,30.5167
187,Philippines,PHL,WPRO,REPORTING,189317158.0,66864.0,PH,Philippines,3725.55120488081,3499.10727950801,3460.53938172807,3224.42281121767,3413.84904430419,117337368.0,115559009.0,113880328.0,112190977.0,110380804.0,PHL,PH,Philippines,East Asia & Pacific,Manila,121.035,14.5515
188,Palau,PLW,WPRO,REPORTING,51032.0,10.0,PW,Palau,14565.3302534617,13421.9722911546,12752.8952959639,14532.5583231468,15730.559546438,18058.0,18055.0,18024.0,17972.0,17916.0,PLW,PW,Palau,East Asia & Pacific,Koror,134.479,7.34194
189,French Polynesia,PYF,WPRO,REPORTING,493692.0,650.0,PF,French Polynesia,,18984.8510962405,20230.2410482554,19185.6977702906,20093.2085805567,308872.0,306279.0,304032.0,301920.0,299717.0,PYF,PF,French Polynesia,East Asia & Pacific,Papeete,-149.57,-17.535
190,Qatar,QAT,EMRO,REPORTING,7609178.0,690.0,QA,Qatar,,87480.4197119462,66858.7417247523,52315.6600806222,62827.3969554767,2716391.0,2695122.0,2688235.0,2760385.0,2807235.0,QAT,QA,Qatar,Middle East & North Africa,Doha,51.5082,25.2948
191,Saudi Arabia,SAU,EMRO,REPORTING,68534631.0,9646.0,SA,Saudi Arabia,28894.963351808,30447.8823171601,24315.6153272971,20398.0614331035,23405.7087429435,36947025.0,36408820.0,35950396.0,35997107.0,35827362.0,SAU,SA,Saudi Arabia,Middle East & North Africa,Riyadh,46.6977,24.6748
192,Singapore,SGP,WPRO,REPORTING,15302530.0,2024.0,SG,Singapore,84734.2559206054,88428.7024226232,79601.4129622433,61466.803676358,66081.7199235165,5917648.0,5637022.0,5453566.0,5685807.0,5703569.0,SGP,SG,Singapore,East Asia & Pacific,Singapore,103.85,1.28941
193,Saint Helena,SHN,,REPORTING,,0.0,,,,,,,,,,,,,,,,,,,
194,Solomon Islands,SLB,WPRO,REPORTING,612700.0,199.0,SB,Solomon Islands,2203.1791258997,2162.6661301834,2151.29301659728,2222.46211853173,2398.77305007963,740424.0,724273.0,707851.0,691191.0,674993.0,SLB,SB,Solomon Islands,East Asia & Pacific,Honiara,159.949,-9.42676
195,Syrian Arab Republic,SYR,EMRO,REPORTING,5090630.0,3163.0,SY,Syrian Arab Republic,,,421.117345181756,537.048370894551,1123.63235251465,23227014.0,22125249.0,21324367.0,20772595.0,20098251.0,SYR,SY,Syrian Arab Republic,Middle East & North Africa,Damascus,36.3119,33.5146
196,Thailand,THA,SEARO,REPORTING,142635014.0,34725.0,TH,Thailand,7171.80809318978,6913.05080521119,7070.51250729112,7001.85028683673,7628.57603307351,71801279.0,71697030.0,71601103.0,71475664.0,71307763.0,THA,TH,Thailand,East Asia & Pacific,Bangkok,100.521,13.7308
197,Tokelau,TKL,WPRO,REPORTING,6342.0,0.0,,,,,,,,,,,,,,,,,,,
198,Timor-Leste,TLS,SEARO,REPORTING,2028798.0,138.0,TL,Timor-Leste,1648.64729020342,2389.2958750343,2741.95081994516,1663.5596290755,1583.07860279061,1360596.0,1341296.0,1320942.0,1299995.0,1280438.0,TLS,TL,Timor-Leste,East Asia & Pacific,Dili,125.567,-8.56667
199,Tonga,TON,WPRO,REPORTING,204737.0,13.0,TO,Tonga,,4681.67940711244,4425.97149198516,4605.97084119137,4878.97868604087,107773.0,106858.0,106017.0,105254.0,104951.0,TON,TO,Tonga,East Asia & Pacific,Nuku'alofa,-175.216,-21.136
200,Tuvalu,TUV,WPRO,REPORTING,26783.0,1.0,TV,Tuvalu,5465.10280670561,5221.53306995807,5372.76023865042,4674.91140255256,4940.05098268449,11396.0,11312.0,11204.0,11069.0,10956.0,TUV,TV,Tuvalu,East Asia & Pacific,Funafuti,179.089567,-8.6314877
201,Viet Nam,VNM,WPRO,REPORTING,266492149.0,43206.0,VN,Viet Nam,4346.76849237821,4179.01179036963,3759.94832901576,3586.34717624763,3491.09140990663,98858950.0,98186856.0,97468029.0,96648685.0,95776716.0,VNM,VN,Viet Nam,East Asia & Pacific,Hanoi,105.825,21.0069
202,Vanuatu,VUT,WPRO,REPORTING,355430.0,14.0,VU,Vanuatu,3367.09463871866,3128.54042205837,2978.01259813971,2917.75684908933,3076.58988588361,334506.0,326740.0,319137.0,311685.0,304404.0,VUT,VU,Vanuatu,East Asia & Pacific,Port-Vila,168.321,-17.7404
203,Samoa,WSM,WPRO,REPORTING,453130.0,31.0,WS,Samoa,4139.02958723,3745.56036746313,3857.68974206459,4042.72275154324,4308.3007294066,225681.0,222382.0,218764.0,214929.0,211905.0,WSM,WS,Samoa,East Asia & Pacific,Apia,-171.752,-13.8314
